{
  "城市光影": [
    {
      "filename": "台中北屯林鼎樸御.jpg",
      "color": [
        118,
        121,
        100
      ]
    },
    {
      "filename": "台中大毅讚幸福.jpg",
      "color": [
        118,
        117,
        100
      ]
    },
    {
      "filename": "台中漢神洲際百貨.jpg",
      "color": [
        127,
        124,
        117
      ]
    },
    {
      "filename": "台中總太洲際W .jpg",
      "color": [
        117,
        120,
        112
      ]
    },
    {
      "filename": "新北新店行政園區  .jpg",
      "color": [
        96,
        102,
        103
      ]
    },
    {
      "filename": "新北新店行政園區.jpg",
      "color": [
        98,
        105,
        106
      ]
    },
    {
      "filename": "新北新店裕隆城.jpg",
      "color": [
        85,
        91,
        84
      ]
    },
    {
      "filename": "新北林口和洲艾美  .jpg",
      "color": [
        111,
        107,
        102
      ]
    },
    {
      "filename": "新北林口和洲艾美 .jpg",
      "color": [
        99,
        104,
        100
      ]
    },
    {
      "filename": "新北淡海新市鎮一隅.jpg",
      "color": [
        122,
        129,
        119
      ],
      "gps": {
        "lat": 25.20114,
        "lng": 121.437718,
        "alt": 17.47
      }
    },
    {
      "filename": "新店五峰國中.jpg",
      "color": [
        96,
        93,
        87
      ]
    },
    {
      "filename": "新店美河市.jpg",
      "color": [
        111,
        114,
        104
      ]
    },
    {
      "filename": "板橋城市風景 .jpg",
      "color": [
        100,
        118,
        113
      ],
      "gps": {
        "lat": 25.01995,
        "lng": 121.449893,
        "alt": 89.16
      }
    },
    {
      "filename": "板橋城市風景.jpg",
      "color": [
        94,
        103,
        102
      ],
      "gps": {
        "lat": 25.020441,
        "lng": 121.449208,
        "alt": 89.13
      }
    },
    {
      "filename": "林口三發嵐海 .jpg",
      "color": [
        126,
        126,
        114
      ]
    },
    {
      "filename": "林口三發嵐海.jpg",
      "color": [
        121,
        116,
        109
      ]
    },
    {
      "filename": "林口文化北路二段與中山路路口.jpg",
      "color": [
        90,
        93,
        88
      ],
      "gps": {
        "lat": 25.089178,
        "lng": 121.373556,
        "alt": 327.63
      }
    },
    {
      "filename": "桃園大園橫山書法藝術公園.jpg",
      "color": [
        101,
        104,
        97
      ],
      "gps": {
        "lat": 25.020691,
        "lng": 121.216764,
        "alt": 154.71
      }
    },
    {
      "filename": "桃園小檜溪重劃區河濱公園   .jpg",
      "color": [
        119,
        125,
        111
      ],
      "gps": {
        "lat": 25.002702,
        "lng": 121.317016,
        "alt": 140.12
      }
    },
    {
      "filename": "桃園小檜溪重劃區河濱公園  .jpg",
      "color": [
        121,
        113,
        97
      ],
      "gps": {
        "lat": 25.002251,
        "lng": 121.316496,
        "alt": 110.11
      }
    },
    {
      "filename": "桃園小檜溪重劃區河濱公園.jpg",
      "color": [
        137,
        142,
        135
      ],
      "gps": {
        "lat": 25.002589,
        "lng": 121.316913,
        "alt": 71.92
      }
    },
    {
      "filename": "桃園昭揚天御建案-2.jpg",
      "color": [
        94,
        104,
        97
      ],
      "gps": {
        "lat": 25.008163,
        "lng": 121.313752,
        "alt": 234.64
      }
    },
    {
      "filename": "桃園水綠方建案  .jpg",
      "color": [
        132,
        135,
        118
      ],
      "gps": {
        "lat": 25.016821,
        "lng": 121.25988,
        "alt": 226.74
      }
    },
    {
      "filename": "桃園水綠方建案 .jpg",
      "color": [
        121,
        125,
        104
      ],
      "gps": {
        "lat": 25.015814,
        "lng": 121.261499,
        "alt": 249.94
      }
    },
    {
      "filename": "桃園水綠方建案.jpg",
      "color": [
        102,
        109,
        97
      ],
      "gps": {
        "lat": 25.018126,
        "lng": 121.261368,
        "alt": 277.94
      }
    },
    {
      "filename": "桃園玉山公園及新家坡七期玉山官邸-2.jpg",
      "color": [
        112,
        109,
        88
      ],
      "gps": {
        "lat": 24.98149,
        "lng": 121.299164,
        "alt": 248.39
      }
    },
    {
      "filename": "桃園觀音工業區廠房.jpg",
      "color": [
        110,
        127,
        132
      ],
      "gps": {
        "lat": 25.056785,
        "lng": 121.120509,
        "alt": 97.1
      }
    },
    {
      "filename": "桃園龜山富宇上城.jpg",
      "color": [
        113,
        123,
        126
      ],
      "gps": {
        "lat": 25.053953,
        "lng": 121.388132,
        "alt": 227.65
      }
    },
    {
      "filename": "桃園龜山富宇敦峰社區.jpg",
      "color": [
        130,
        128,
        120
      ],
      "gps": {
        "lat": 25.051878,
        "lng": 121.385004,
        "alt": 298.44
      }
    },
    {
      "filename": "高雄福懋站前之星 .jpg",
      "color": [
        100,
        103,
        100
      ]
    },
    {
      "filename": "高雄福懋美森園.jpg",
      "color": [
        109,
        110,
        102
      ]
    },
    {
      "filename": "高雄舊高雄車站(高雄願景館) .jpg",
      "color": [
        114,
        115,
        104
      ]
    }
  ],
  "大地映像": [
    {
      "filename": "南投日月潭  .jpg",
      "color": [
        88,
        99,
        92
      ]
    },
    {
      "filename": "南投日月潭 .jpg",
      "color": [
        81,
        104,
        90
      ]
    },
    {
      "filename": "南投日月潭.jpg",
      "color": [
        106,
        125,
        118
      ]
    },
    {
      "filename": "台中洲際棒球場.jpg",
      "color": [
        110,
        111,
        101
      ]
    },
    {
      "filename": "台北士林洲美橡皮壩.jpg",
      "color": [
        85,
        86,
        71
      ],
      "gps": {
        "lat": 25.097934,
        "lng": 121.510013,
        "alt": 82.22
      }
    },
    {
      "filename": "台北士林雙溪濕地公園.jpg",
      "color": [
        105,
        104,
        73
      ],
      "gps": {
        "lat": 25.097309,
        "lng": 121.510313,
        "alt": 83.32
      }
    },
    {
      "filename": "台北市北投社子大橋 .jpg",
      "color": [
        118,
        132,
        135
      ]
    },
    {
      "filename": "台北市北投社子大橋.jpg",
      "color": [
        126,
        134,
        146
      ]
    },
    {
      "filename": "台北社子島腳踏車道.jpg",
      "color": [
        107,
        118,
        109
      ]
    },
    {
      "filename": "基隆外木山漁港  .jpg",
      "color": [
        92,
        106,
        100
      ],
      "gps": {
        "lat": 25.159293,
        "lng": 121.732381,
        "alt": 155.67
      }
    },
    {
      "filename": "基隆外木山漁港.jpg",
      "color": [
        73,
        102,
        97
      ],
      "gps": {
        "lat": 25.160544,
        "lng": 121.735482,
        "alt": 158.04
      }
    },
    {
      "filename": "基隆外木山濱海大道    .jpg",
      "color": [
        92,
        115,
        124
      ],
      "gps": {
        "lat": 25.164473,
        "lng": 121.711145,
        "alt": 107.0
      }
    },
    {
      "filename": "基隆外木山濱海大道   .jpg",
      "color": [
        97,
        116,
        120
      ],
      "gps": {
        "lat": 25.164295,
        "lng": 121.711367,
        "alt": 114.82
      }
    },
    {
      "filename": "基隆外木山濱海大道  .jpg",
      "color": [
        57,
        97,
        108
      ],
      "gps": {
        "lat": 25.164132,
        "lng": 121.717049,
        "alt": 155.59
      }
    },
    {
      "filename": "基隆外木山濱海大道 .jpg",
      "color": [
        80,
        111,
        114
      ],
      "gps": {
        "lat": 25.16399,
        "lng": 121.721,
        "alt": 81.27
      }
    },
    {
      "filename": "基隆大武崙澳底漁港.jpg",
      "color": [
        75,
        102,
        95
      ],
      "gps": {
        "lat": 25.163859,
        "lng": 121.708487,
        "alt": 175.63
      }
    },
    {
      "filename": "基隆大武崙白沙灘  .jpg",
      "color": [
        82,
        95,
        72
      ],
      "gps": {
        "lat": 25.168482,
        "lng": 121.707814,
        "alt": 157.67
      }
    },
    {
      "filename": "基隆望幽谷      .jpg",
      "color": [
        72,
        104,
        92
      ],
      "gps": {
        "lat": 25.14628,
        "lng": 121.796395,
        "alt": 103.57
      }
    },
    {
      "filename": "基隆望幽谷    .jpg",
      "color": [
        65,
        86,
        65
      ],
      "gps": {
        "lat": 25.146087,
        "lng": 121.796506,
        "alt": 113.5
      }
    },
    {
      "filename": "基隆望幽谷   .jpg",
      "color": [
        73,
        100,
        99
      ],
      "gps": {
        "lat": 25.146118,
        "lng": 121.79653,
        "alt": 103.23
      }
    },
    {
      "filename": "基隆望幽谷 .jpg",
      "color": [
        69,
        98,
        108
      ],
      "gps": {
        "lat": 25.145481,
        "lng": 121.796369,
        "alt": 213.44
      }
    },
    {
      "filename": "宜蘭三星安農溪分洪堰水門.jpg",
      "color": [
        108,
        106,
        77
      ],
      "gps": {
        "lat": 24.68374,
        "lng": 121.722823,
        "alt": 73.56
      }
    },
    {
      "filename": "宜蘭三星路四段旁.jpg",
      "color": [
        101,
        104,
        86
      ],
      "gps": {
        "lat": 24.666594,
        "lng": 121.662376,
        "alt": 216.7
      }
    },
    {
      "filename": "宜蘭五結防潮閘門 .jpg",
      "color": [
        140,
        117,
        101
      ],
      "gps": {
        "lat": 24.69229,
        "lng": 121.837277,
        "alt": 143.87
      }
    },
    {
      "filename": "宜蘭五結防潮閘門日落美景.jpg",
      "color": [
        125,
        116,
        107
      ],
      "gps": {
        "lat": 24.69258,
        "lng": 121.83588,
        "alt": 138.39
      }
    },
    {
      "filename": "宜蘭冬山打那岸水閘門.JPG",
      "color": [
        92,
        107,
        94
      ],
      "gps": {
        "lat": 24.66956,
        "lng": 121.812721,
        "alt": 83.34
      }
    },
    {
      "filename": "宜蘭冬山普悠瑪與希望之丘.jpg",
      "color": [
        70,
        82,
        47
      ],
      "gps": {
        "lat": 24.644349,
        "lng": 121.788427,
        "alt": 139.17
      }
    },
    {
      "filename": "宜蘭冬山森之脈橋與水上綠舟.jpg",
      "color": [
        76,
        89,
        75
      ],
      "gps": {
        "lat": 24.641194,
        "lng": 121.79162,
        "alt": 97.18
      }
    },
    {
      "filename": "宜蘭冬山河旁景致.jpg",
      "color": [
        101,
        119,
        88
      ],
      "gps": {
        "lat": 24.66579,
        "lng": 121.806648,
        "alt": 100.24
      }
    },
    {
      "filename": "宜蘭冬山河與森之脈橋.jpg",
      "color": [
        95,
        98,
        51
      ],
      "gps": {
        "lat": 24.638348,
        "lng": 121.793144,
        "alt": 137.61
      }
    },
    {
      "filename": "宜蘭冬山河黃昏美景 .jpg",
      "color": [
        108,
        89,
        76
      ],
      "gps": {
        "lat": 24.692184,
        "lng": 121.828718,
        "alt": 141.12
      }
    },
    {
      "filename": "宜蘭冬山田園景緻 .jpg",
      "color": [
        98,
        98,
        68
      ],
      "gps": {
        "lat": 24.642975,
        "lng": 121.792401,
        "alt": 117.0
      }
    },
    {
      "filename": "宜蘭冬山田園景緻.jpg",
      "color": [
        106,
        114,
        101
      ],
      "gps": {
        "lat": 24.689447,
        "lng": 121.746374,
        "alt": 63.86
      }
    },
    {
      "filename": "宜蘭冬山萬長春圳水門公園 .jpg",
      "color": [
        83,
        85,
        54
      ],
      "gps": {
        "lat": 24.686167,
        "lng": 121.745453,
        "alt": 84.54
      }
    },
    {
      "filename": "宜蘭冬山萬長春圳水門公園.jpg",
      "color": [
        92,
        103,
        77
      ],
      "gps": {
        "lat": 24.687635,
        "lng": 121.745799,
        "alt": 81.84
      }
    },
    {
      "filename": "宜蘭羅東棒球場.jpg",
      "color": [
        86,
        88,
        46
      ],
      "gps": {
        "lat": 24.685356,
        "lng": 121.748189,
        "alt": 154.61
      }
    },
    {
      "filename": "新北林口竹林山寺公園  .jpg",
      "color": [
        89,
        91,
        55
      ]
    },
    {
      "filename": "新北林口竹林山寺公園 .jpg",
      "color": [
        103,
        109,
        86
      ]
    },
    {
      "filename": "新北林口竹林山寺公園.jpg",
      "color": [
        88,
        82,
        53
      ]
    },
    {
      "filename": "新北林口竹林山觀音寺  .jpg",
      "color": [
        98,
        88,
        68
      ]
    },
    {
      "filename": "新北林口竹林山觀音寺.jpg",
      "color": [
        125,
        87,
        65
      ]
    },
    {
      "filename": "新北瑞芳.jpg",
      "color": [
        91,
        109,
        102
      ]
    },
    {
      "filename": "新北瑞芳礁岩海岸.jpg",
      "color": [
        65,
        96,
        100
      ]
    },
    {
      "filename": "新北雙溪牡丹車站旁  .jpg",
      "color": [
        79,
        78,
        68
      ]
    },
    {
      "filename": "新北雙溪牡丹車站旁 .jpg",
      "color": [
        97,
        91,
        70
      ]
    },
    {
      "filename": "新店中興路.jpg",
      "color": [
        96,
        90,
        80
      ]
    },
    {
      "filename": "新店景美溪旁.jpg",
      "color": [
        84,
        84,
        69
      ]
    },
    {
      "filename": "新店景美溪河堤步道.jpg",
      "color": [
        104,
        123,
        120
      ],
      "gps": {
        "lat": 24.979038,
        "lng": 121.557536,
        "alt": 8.01
      }
    },
    {
      "filename": "新竹寶山小西湖.jpg",
      "color": [
        82,
        92,
        68
      ],
      "gps": {
        "lat": 24.713701,
        "lng": 121.013444,
        "alt": 158.08
      }
    },
    {
      "filename": "桃園大園許厝港溼地 .jpg",
      "color": [
        100,
        98,
        87
      ]
    },
    {
      "filename": "桃園大園許厝港溼地.jpg",
      "color": [
        100,
        123,
        131
      ]
    },
    {
      "filename": "桃園大有梯田生態公園.jpg",
      "color": [
        100,
        99,
        70
      ],
      "gps": {
        "lat": 25.011406,
        "lng": 121.321509,
        "alt": 200.7
      }
    },
    {
      "filename": "桃園玉山公園.jpg",
      "color": [
        107,
        114,
        66
      ],
      "gps": {
        "lat": 24.982036,
        "lng": 121.299968,
        "alt": 237.94
      }
    },
    {
      "filename": "桃園青溪公園.jpg",
      "color": [
        95,
        96,
        77
      ],
      "gps": {
        "lat": 25.002694,
        "lng": 121.318147,
        "alt": 219.24
      }
    },
    {
      "filename": "澎湖後寮天堂路 .JPG",
      "color": [
        121,
        90,
        78
      ],
      "gps": {
        "lat": 23.676606,
        "lng": 119.579373,
        "alt": 47.45
      }
    },
    {
      "filename": "澎湖湖西菓葉觀日樓.JPG",
      "color": [
        113,
        85,
        68
      ],
      "gps": {
        "lat": 23.581545,
        "lng": 119.679776,
        "alt": 74.53
      }
    },
    {
      "filename": "花蓮和平火車站旁 .jpg",
      "color": [
        105,
        127,
        127
      ],
      "gps": {
        "lat": 24.299506,
        "lng": 121.754777,
        "alt": 168.08
      }
    },
    {
      "filename": "花蓮和平火車站旁.jpg",
      "color": [
        90,
        112,
        116
      ],
      "gps": {
        "lat": 24.299922,
        "lng": 121.753424,
        "alt": 167.08
      }
    },
    {
      "filename": "花蓮清水斷崖.jpg",
      "color": [
        88,
        107,
        107
      ],
      "gps": {
        "lat": 24.190584,
        "lng": 121.662501,
        "alt": 179.5
      }
    },
    {
      "filename": "雲林北港女兒橋.JPG",
      "color": [
        99,
        106,
        95
      ],
      "gps": {
        "lat": 23.572119,
        "lng": 120.307659,
        "alt": 88.7
      }
    },
    {
      "filename": "雲林北港朝天宮.JPG",
      "color": [
        121,
        98,
        71
      ],
      "gps": {
        "lat": 23.5671,
        "lng": 120.303741,
        "alt": 144.04
      }
    },
    {
      "filename": "雲林斗六石榴火車站.JPG",
      "color": [
        85,
        94,
        89
      ],
      "gps": {
        "lat": 23.730706,
        "lng": 120.57687,
        "alt": 136.98
      }
    },
    {
      "filename": "雲林西螺大橋旁.JPG",
      "color": [
        76,
        78,
        52
      ],
      "gps": {
        "lat": 23.805556,
        "lng": 120.460746,
        "alt": 66.63
      }
    },
    {
      "filename": "雲林西螺落日剪影.JPG",
      "color": [
        149,
        76,
        19
      ],
      "gps": {
        "lat": 23.807901,
        "lng": 120.461586,
        "alt": 82.16
      }
    },
    {
      "filename": "高雄中都橋.jpg",
      "color": [
        92,
        95,
        94
      ]
    },
    {
      "filename": "高雄輕軌 .jpg",
      "color": [
        99,
        99,
        85
      ]
    },
    {
      "filename": "高雄輕軌.jpg",
      "color": [
        100,
        97,
        86
      ]
    },
    {
      "filename": "高雄高雄車站  .jpg",
      "color": [
        83,
        85,
        79
      ]
    },
    {
      "filename": "高雄高雄車站 .jpg",
      "color": [
        94,
        95,
        87
      ]
    },
    {
      "filename": "高雄高雄車站(高雄綠之丘).jpg",
      "color": [
        86,
        89,
        81
      ]
    },
    {
      "filename": "高雄高雄車站.jpg",
      "color": [
        106,
        106,
        98
      ]
    }
  ]
}